City_ID,City,Lat,Lng,Max Temp,Humidity,Cloudiness,Wind Speed,Country,Date
0,albany,42.6,-73.97,28.0,44,1,8.05,US,1581791608
1,bengkulu,-3.8,102.27,73.99,94,43,3.98,ID,1581791608
2,avarua,-21.21,-159.78,80.6,88,100,6.93,CK,1581791608
3,esperance,-33.87,121.9,68.0,94,90,13.87,AU,1581791609
4,kapaa,22.08,-159.32,73.4,83,20,17.22,US,1581791609
5,yulara,-25.24,130.99,80.6,24,0,6.93,AU,1581791609
6,aksarka,66.56,67.8,5.54,96,93,7.4,RU,1581791609
7,fort thomas,39.08,-84.45,39.99,44,40,10.29,US,1581791609
8,meadow lake,34.8,-106.54,55.99,27,1,9.17,US,1581791610
9,saldanha,-33.01,17.94,89.6,31,0,9.17,ZA,1581791610
10,ancud,-41.87,-73.82,64.4,68,75,12.75,CL,1581791610
11,bambous virieux,-20.34,57.76,80.6,78,40,14.99,MU,1581791328
12,port alfred,-33.59,26.89,73.0,96,88,17.63,ZA,1581791610
13,atar,20.52,-13.05,80.74,17,98,14.09,MR,1581791610
14,atbasar,51.8,68.33,17.8,90,100,7.58,KZ,1581791611
15,mataura,-46.19,168.86,57.0,97,100,5.99,NZ,1581791502
16,port lincoln,-34.73,135.87,62.64,76,51,11.12,AU,1581791611
17,byron bay,-28.65,153.62,75.2,100,14,1.9,AU,1581791611
18,constitucion,-35.33,-72.42,67.98,61,9,13.42,CL,1581791611
19,ushuaia,-54.8,-68.3,51.8,66,75,5.82,AR,1581791611
20,riyadh,24.69,46.72,62.6,14,0,3.36,SA,1581791543
21,camana,-16.62,-72.71,75.06,62,24,11.83,PE,1581791612
22,puerto ayora,-0.74,-90.35,86.0,66,20,23.04,EC,1581791612
23,vila do maio,15.13,-23.22,84.2,21,86,20.8,CV,1581791612
24,normandin,48.83,-72.53,15.01,56,75,13.87,CA,1581791421
25,faanui,-16.48,-151.75,82.94,72,100,9.95,PF,1581791356
26,busselton,-33.65,115.33,64.99,50,6,7.67,AU,1581791613
27,tecoanapa,16.52,-98.75,95.9,33,0,5.79,MX,1581791613
28,tawang,27.58,91.87,28.78,89,100,1.12,IN,1581791613
29,emba,48.83,58.14,10.85,96,100,8.46,KZ,1581791613
30,severo-kurilsk,50.68,156.12,14.94,89,97,24.65,RU,1581791613
31,punta arenas,-53.15,-70.92,53.6,58,75,34.45,CL,1581791614
32,mogadishu,2.04,45.34,81.01,84,4,21.83,SO,1581791337
33,barrow,71.29,-156.79,-34.6,94,1,11.41,US,1581791614
34,steamboat springs,40.48,-106.83,30.99,68,40,3.47,US,1581791346
35,guerrero negro,27.98,-114.06,65.97,54,83,7.96,MX,1581791361
36,hilo,19.73,-155.09,73.0,77,20,5.82,US,1581791614
37,jiuquan,39.74,98.52,17.56,27,81,3.6,CN,1581791615
38,nelson bay,-32.72,152.15,71.01,94,90,1.3,AU,1581791615
39,rikitea,-23.12,-134.97,79.56,78,52,20.24,PF,1581791615
40,hobyo,5.35,48.53,78.21,78,14,18.48,SO,1581791615
41,wajid,3.81,43.25,82.24,45,51,13.98,SO,1581791615
42,havoysund,71.0,24.66,23.0,73,52,26.4,NO,1581791616
43,jijiga,9.35,42.8,63.46,54,15,7.43,ET,1581791616
44,iwata,34.7,137.85,48.0,100,75,2.24,JP,1581791342
45,great falls,47.5,-111.3,39.99,44,75,26.4,US,1581791569
46,kjopsvik,68.1,16.37,30.99,79,100,11.41,NO,1581791617
47,pandan,14.05,124.17,79.0,77,0,11.1,PH,1581791617
48,torbay,47.67,-52.73,19.0,56,20,24.2,CA,1581791617
49,alice springs,-23.7,133.88,84.2,35,1,17.22,AU,1581791617
50,cidreira,-30.18,-50.21,78.22,77,69,8.99,BR,1581791617
51,elsfleth,53.24,8.46,53.01,66,81,16.11,DE,1581791618
52,kungurtug,50.6,97.52,3.96,64,0,3.83,RU,1581791618
53,hobart,-42.88,147.33,55.4,62,90,8.05,AU,1581791618
54,leningradskiy,69.38,178.42,-13.0,95,100,13.18,RU,1581791334
55,jamestown,42.1,-79.24,30.99,53,1,13.87,US,1581791619
56,tiquisate,14.28,-91.37,96.8,49,20,9.17,GT,1581791619
57,airai,-8.93,125.41,67.64,91,5,2.57,TL,1581791619
58,yeppoon,-23.13,150.73,78.8,88,0,6.93,AU,1581791619
59,ndele,8.41,20.65,83.71,15,44,4.61,CF,1581791619
60,codrington,-38.27,141.97,59.56,81,96,14.61,AU,1581791620
61,nanortalik,60.14,-45.24,29.44,66,81,12.64,GL,1581791620
62,mareeba,-17.0,145.43,82.4,65,22,10.29,AU,1581791620
63,upernavik,72.79,-56.15,-2.45,59,44,4.45,GL,1581791620
64,victoria,22.29,114.16,64.0,87,40,23.04,HK,1581791620
65,bluff,-46.6,168.33,57.0,97,100,5.99,NZ,1581791620
66,kaitangata,-46.28,169.85,59.0,91,100,3.0,NZ,1581791621
67,faya,18.39,42.45,62.6,51,0,13.87,SA,1581791621
68,kolondieba,11.09,-6.89,91.51,7,78,4.99,ML,1581791621
69,port lavaca,28.61,-96.63,72.0,64,1,10.29,US,1581791621
70,nadym,65.53,72.52,0.93,96,79,4.88,RU,1581791621
71,pevek,69.7,170.31,-19.73,100,100,6.24,RU,1581791622
72,ponta delgada,37.73,-25.67,64.4,82,40,24.16,PT,1581791622
73,georgetown,5.41,100.34,82.4,94,20,3.36,MY,1581791488
74,qaanaaq,77.48,-69.36,-0.54,34,51,7.49,GL,1581791622
75,tasiilaq,65.61,-37.64,30.2,63,90,13.87,GL,1581791622
76,la palma,33.85,-118.05,64.99,55,1,2.55,US,1581791623
77,arraial do cabo,-22.97,-42.03,89.6,74,20,11.41,BR,1581791623
78,hermanus,-34.42,19.23,73.99,84,0,7.0,ZA,1581791623
79,vaini,-21.2,-175.2,77.0,78,20,6.93,TO,1581791623
80,hithadhoo,-0.6,73.08,83.73,75,0,7.09,MV,1581791623
81,atessa,42.07,14.45,48.2,70,0,1.12,IT,1581791624
82,yellowknife,62.46,-114.35,-16.01,67,40,4.7,CA,1581791478
83,namibe,-15.2,12.15,74.71,82,50,12.8,AO,1581791624
84,nabire,-3.37,135.48,73.6,98,77,1.36,ID,1581791624
85,butaritari,3.07,172.79,82.65,74,100,14.54,KI,1581791327
86,bolokhovo,54.09,37.82,29.3,92,90,3.51,RU,1581791624
87,dikson,73.51,80.55,15.17,94,95,13.78,RU,1581791584
88,taltal,-25.4,-70.48,69.71,69,80,7.43,CL,1581791625
89,yola,9.2,12.48,83.52,12,17,2.64,NG,1581791625
90,yagodnoye,62.55,149.67,-23.31,91,0,3.06,RU,1581791625
91,muisne,0.6,-80.03,78.8,100,75,4.7,EC,1581791625
92,sikasso,10.92,-7.0,91.51,7,78,4.99,ML,1581791626
93,cotonou,6.37,2.42,84.2,79,20,6.93,BJ,1581791626
94,pacific grove,36.62,-121.92,57.99,62,1,5.82,US,1581791626
95,ponta do sol,32.67,-17.1,66.2,68,40,5.82,PT,1581791626
96,narsaq,60.92,-46.05,28.4,50,75,2.24,GL,1581791626
97,bud,39.45,-86.18,42.01,51,40,13.87,US,1581791358
98,bandarbeyla,9.49,50.81,76.32,77,66,16.08,SO,1581791627
99,xinxiang,35.31,113.87,30.2,24,4,4.97,CN,1581791627
100,auki,-8.77,160.7,82.51,79,100,25.77,SB,1581791396
101,hualmay,-11.1,-77.61,79.34,59,9,10.94,PE,1581791627
102,asau,46.43,26.4,41.0,75,75,8.05,RO,1581791627
103,vardo,70.37,31.11,20.23,85,0,17.36,NO,1581791627
104,yar-sale,66.83,70.83,2.91,96,61,6.33,RU,1581791365
105,morehead,37.27,-87.18,46.99,26,1,12.75,US,1581791628
106,atuona,-9.8,-139.03,81.54,75,47,18.54,PF,1581791628
107,kieta,-6.22,155.63,80.24,74,99,5.26,PG,1581791628
108,chuy,-33.7,-53.46,84.18,54,5,6.22,UY,1581791628
109,halifax,44.65,-63.57,23.0,57,40,6.93,CA,1581791431
110,srednekolymsk,67.45,153.68,-30.15,96,66,6.04,RU,1581791629
111,bathsheba,13.22,-59.52,82.4,65,20,24.16,BB,1581791378
112,aranos,-24.13,19.12,85.37,34,94,10.54,NA,1581791629
113,cape town,-33.93,18.42,72.0,77,4,14.99,ZA,1581791629
114,bullhead city,35.15,-114.57,62.01,30,40,3.98,US,1581791365
115,cao bang,22.67,106.25,55.26,70,97,8.97,VN,1581791630
116,chokurdakh,70.63,147.92,-26.93,89,0,9.48,RU,1581791630
117,balkhash,46.84,74.98,16.92,77,78,5.37,KZ,1581791630
118,beringovskiy,63.05,179.32,-2.45,82,100,25.01,RU,1581791630
119,upata,8.01,-62.4,92.7,34,14,7.9,VE,1581791630
120,carballo,43.21,-8.69,60.01,77,75,21.92,ES,1581791631
121,bursa,40.17,29.08,44.6,93,75,2.24,TR,1581791631
122,itarema,-2.92,-39.92,84.18,70,100,8.59,BR,1581791351
123,cabo san lucas,22.89,-109.91,79.0,56,20,2.24,MX,1581791481
124,coos bay,43.37,-124.22,46.99,93,90,10.29,US,1581791631
125,bredasdorp,-34.53,20.04,72.0,83,0,5.82,ZA,1581791632
126,longyearbyen,78.22,15.64,12.2,66,75,13.87,SJ,1581791632
127,port macquarie,-31.43,152.92,71.01,100,90,3.36,AU,1581791632
128,castro,-24.79,-50.01,82.89,43,80,5.44,BR,1581791419
129,mandalgovi,45.76,106.27,5.32,69,0,7.83,MN,1581791632
130,grand baie,-20.02,57.58,80.6,78,40,14.99,MU,1581791633
131,male,4.17,73.51,84.2,79,40,9.17,MV,1581791614
132,anadyr,64.75,177.48,1.4,59,100,29.08,RU,1581791442
133,labuhan,-6.88,112.21,75.45,90,100,2.33,ID,1581791633
134,mar del plata,-38.0,-57.56,90.0,39,0,19.46,AR,1581791570
135,zhezkazgan,47.8,67.71,21.65,93,100,3.11,KZ,1581791634
136,qurayyat,31.33,37.34,57.2,35,0,6.93,SA,1581791606
137,acarau,-2.89,-40.12,84.18,70,100,8.59,BR,1581791634
138,new norfolk,-42.78,147.06,55.4,62,90,8.05,AU,1581791634
139,lavrentiya,65.58,-171.0,-5.78,79,100,9.1,RU,1581791634
140,port elizabeth,-33.92,25.57,75.2,88,40,14.99,ZA,1581791635
141,monchegorsk,67.94,32.87,12.94,92,91,6.87,RU,1581791635
142,ridgecrest,35.62,-117.67,59.0,32,1,2.57,US,1581791635
143,chalchihuites,23.48,-103.88,66.04,31,100,11.9,MX,1581791635
144,camacupa,-12.02,17.48,67.21,94,96,5.55,AO,1581791635
145,asyut,27.18,31.18,66.2,45,0,5.82,EG,1581791635
146,tuktoyaktuk,69.45,-133.04,-43.6,64,5,3.76,CA,1581791636
147,souillac,-20.52,57.52,80.6,78,40,14.99,MU,1581791636
148,nushki,29.55,66.02,51.84,37,4,4.81,PK,1581791636
149,coquimbo,-29.95,-71.34,69.8,64,21,13.87,CL,1581791636
150,masalli,34.8,126.66,39.2,100,100,13.87,KR,1581791636
151,sao joao da barra,-21.64,-41.05,87.8,62,20,11.41,BR,1581791637
152,lebu,-37.62,-73.65,71.46,49,0,8.84,CL,1581791346
153,katobu,-4.94,122.53,76.06,91,47,1.48,ID,1581791637
154,ribeira grande,38.52,-28.7,62.6,93,75,20.8,PT,1581791339
155,foam lake,51.65,-103.53,-10.86,90,15,12.12,CA,1581791638
156,nouadhibou,20.93,-17.03,80.6,32,88,9.17,MR,1581791638
157,tongchuan,35.08,109.09,23.31,28,78,1.3,CN,1581791639
158,aklavik,68.22,-135.01,-38.2,64,20,6.67,CA,1581791395
159,kendari,-3.94,122.5,76.46,91,25,2.04,ID,1581791639
160,petersburg,37.23,-77.4,39.99,37,1,3.36,US,1581791586
161,kholodnyy,62.72,147.95,-22.34,99,0,6.4,RU,1581791639
162,tocopilla,-22.09,-70.2,77.29,37,52,13.6,CL,1581791639
163,ipameri,-17.72,-48.16,80.69,73,36,2.66,BR,1581791640
164,east london,-33.02,27.91,77.0,88,100,9.17,ZA,1581791640
165,kokologo,12.19,-1.89,91.4,7,0,9.17,BF,1581791640
166,bouna,9.27,-3.0,89.92,5,0,3.38,CI,1581791640
167,manzhouli,49.6,117.43,-1.97,82,0,5.99,CN,1581791640
168,lensk,60.73,114.93,10.71,91,93,10.98,RU,1581791640
169,klyuchi,52.27,79.17,12.04,78,14,4.05,RU,1581791641
170,zhigansk,66.77,123.37,-10.37,97,100,18.28,RU,1581791641
171,abu dhabi,24.47,54.37,66.2,82,20,3.36,AE,1581791446
172,daurala,29.12,77.68,57.42,51,0,5.99,IN,1581791641
173,burns lake,54.23,-125.75,21.38,91,35,2.98,CA,1581791513
174,dingle,11.0,122.67,72.82,87,8,9.35,PH,1581791641
175,isangel,-19.55,169.27,78.08,78,80,17.85,VU,1581791642
176,yatou,37.15,122.38,29.05,68,96,19.24,CN,1581791405
177,hasaki,35.73,140.83,43.0,100,75,1.12,JP,1581791642
178,marquette,46.53,-87.63,23.0,72,90,17.22,US,1581791642
179,nome,64.5,-165.41,3.2,49,90,11.41,US,1581791642
180,gambiran,-6.8,111.5,75.34,92,99,0.98,ID,1581791642
181,saint george,37.1,-113.58,53.01,36,1,0.34,US,1581791609
182,naranjal,-2.67,-79.62,77.0,94,90,4.7,EC,1581791643
183,sola,-13.88,167.55,82.99,83,88,19.17,VU,1581791643
184,vila velha,-20.33,-40.29,88.0,70,20,17.22,BR,1581791643
185,vestmannaeyjar,63.44,-20.27,39.2,67,75,26.4,IS,1581791643
186,saskylakh,71.92,114.08,10.0,93,100,9.66,RU,1581791644
187,kirakira,-10.45,161.92,78.12,86,99,13.8,SB,1581791644
188,nikolskoye,59.7,30.79,33.8,80,75,11.18,RU,1581791644
189,pampierstad,-27.78,24.69,79.77,41,36,10.67,ZA,1581791644
190,chumikan,54.72,135.31,-3.15,75,72,10.38,RU,1581791644
191,lavras,-21.25,-45.0,77.38,76,23,4.38,BR,1581791644
192,shestakovo,56.49,103.96,4.32,96,1,3.02,RU,1581791645
193,aripuana,-9.17,-60.63,84.31,70,99,5.14,BR,1581791645
194,thompson,55.74,-97.86,-4.0,58,75,14.99,CA,1581791645
195,nemuro,43.32,145.57,22.86,63,100,18.7,JP,1581791645
196,marshall,34.38,-86.33,53.01,39,1,8.05,US,1581791645
197,plettenberg bay,-34.05,23.37,71.26,88,65,7.47,ZA,1581791646
198,wladyslawowo,54.79,18.4,42.01,86,75,12.75,PL,1581791646
199,luanda,-8.84,13.23,82.4,78,75,11.41,AO,1581791466
200,trat,12.5,102.5,82.0,63,1,2.24,TH,1581791646
201,provideniya,64.38,-173.3,-6.5,72,100,15.68,RU,1581791646
202,lasa,46.62,10.7,42.8,64,5,2.17,IT,1581791646
203,viedma,-40.81,-63.0,87.12,16,0,14.88,AR,1581791647
204,saint-augustin,51.23,-58.65,5.67,66,19,20.22,CA,1581791395
205,bethel,41.37,-73.41,30.0,35,1,8.05,US,1581791647
206,belmonte,-15.86,-38.88,87.8,70,20,9.17,BR,1581791647
207,khatanga,71.97,102.5,7.65,92,100,10.31,RU,1581791647
208,necochea,-38.55,-58.74,90.0,49,0,15.01,AR,1581791647
209,fairbanks,64.84,-147.72,-25.6,67,1,3.36,US,1581791370
210,phan thiet,10.93,108.1,70.81,90,11,3.53,VN,1581791648
211,harper,4.38,-7.72,83.3,73,15,6.71,LR,1581791648
212,grindavik,63.84,-22.43,35.6,74,75,40.26,IS,1581791648
213,palana,59.12,159.97,2.01,83,27,7.29,RU,1581791585
214,iqaluit,63.75,-68.51,-23.01,61,20,5.82,CA,1581791447
215,saint thomas mount,13.0,80.2,80.01,65,13,8.05,IN,1581791649
216,buala,-8.14,159.59,79.18,83,100,13.22,SB,1581791649
217,flinders,-34.58,150.86,68.0,100,90,12.12,AU,1581791649
218,mahebourg,-20.41,57.7,80.6,78,40,14.99,MU,1581791650
219,gloggnitz,47.67,15.94,46.99,61,68,13.87,AT,1581791650
220,albania,41.0,20.0,51.8,48,20,10.29,AL,1581791650
221,svetlogorsk,52.63,29.73,35.13,85,100,3.56,BY,1581791650
222,high rock,26.62,-78.28,73.4,94,90,17.22,BS,1581791650
223,pangnirtung,66.15,-65.71,-27.4,67,20,3.36,CA,1581791650
224,muros,42.78,-9.06,63.0,93,90,13.87,ES,1581791651
225,tautira,-17.73,-149.15,82.4,74,75,9.17,PF,1581791651
226,nalut,30.33,10.85,58.86,49,0,13.02,LY,1581791651
227,sheffield,53.38,-1.47,55.4,93,90,29.97,GB,1581791515
228,ghanzi,-21.57,21.78,81.43,39,100,6.78,BW,1581791651
229,sarangani,5.4,125.46,81.81,74,3,20.22,PH,1581791652
230,bilibino,68.05,166.44,-32.78,100,100,2.71,RU,1581791652
231,tsiroanomandidy,-18.77,46.03,71.4,89,100,2.73,MG,1581791652
232,rocha,-34.48,-54.33,92.05,25,0,3.38,UY,1581791652
233,ruteng,-8.61,120.47,69.42,92,64,2.37,ID,1581791652
234,almora,29.62,79.67,47.41,86,0,2.04,IN,1581791653
235,robertsport,6.75,-11.37,81.75,78,0,17.07,LR,1581791653
236,cartagena del chaira,1.33,-74.84,92.16,39,58,6.73,CO,1581791653
237,oelde,51.82,8.15,51.8,57,64,9.17,DE,1581791653
238,nyuzen,36.93,137.5,45.0,78,59,1.01,JP,1581791654
239,menongue,-14.66,17.69,67.37,91,100,1.45,AO,1581791654
240,rio gallegos,-51.62,-69.22,60.8,29,40,38.03,AR,1581791508
241,maceio,-9.67,-35.74,87.8,55,40,13.87,BR,1581791438
242,datong,40.09,113.29,12.72,34,99,8.81,CN,1581791654
243,preobrazheniye,42.9,133.91,19.26,90,100,7.16,RU,1581791654
244,avera,33.19,-82.53,57.0,50,1,6.93,US,1581791592
245,vidim,56.41,103.11,3.07,95,0,2.91,RU,1581791655
246,paamiut,61.99,-49.67,18.37,87,90,17.07,GL,1581791655
247,pagudpud,18.56,120.79,71.6,94,20,2.24,PH,1581791655
248,los llanos de aridane,28.66,-17.92,68.0,72,20,10.29,ES,1581791655
249,port blair,11.67,92.75,79.02,63,0,9.44,IN,1581791655
250,prince rupert,54.32,-130.32,41.0,80,90,13.87,CA,1581791656
251,sri aman,1.24,111.46,77.0,100,100,2.57,MY,1581791656
252,thanh hoa,19.8,105.77,69.01,76,42,16.8,VN,1581791656
253,port hardy,50.7,-127.42,41.0,93,90,3.04,CA,1581791656
254,zyryanka,65.75,150.85,-30.05,96,5,4.34,RU,1581791656
255,kashi,39.45,75.98,28.4,42,89,4.47,CN,1581791656
256,nova venecia,-18.71,-40.4,86.72,62,69,4.38,BR,1581791657
257,saint-philippe,-21.36,55.77,78.8,78,54,5.82,RE,1581791657
258,mount isa,-20.73,139.5,89.6,24,0,11.41,AU,1581791657
259,yerbogachen,61.28,108.01,3.18,96,79,7.09,RU,1581791657
260,sangar,63.92,127.47,-25.56,90,34,4.34,RU,1581791585
261,mackay,-21.15,149.2,80.01,94,5,5.82,AU,1581791456
262,ghugus,19.93,79.13,75.9,23,0,3.8,IN,1581791658
263,samarai,-10.62,150.67,75.31,89,9,3.91,PG,1581791658
264,haines junction,60.75,-137.51,-13.34,96,100,4.36,CA,1581791658
265,kamenka,51.32,42.77,30.0,90,58,4.47,RU,1581791658
266,dandong,40.13,124.39,20.48,91,100,12.06,CN,1581791659
267,dauphin,51.15,-100.05,1.4,54,1,20.8,CA,1581791659
268,ornskoldsvik,63.29,18.72,30.2,100,41,3.36,SE,1581791369
269,newberry,34.27,-81.62,52.0,49,1,4.38,US,1581791660
270,rio grande,-32.03,-52.1,87.8,62,75,13.87,BR,1581791660
271,meru,0.05,37.66,51.87,98,97,3.58,KE,1581791660
272,tabuk,17.42,121.44,67.98,90,32,5.79,PH,1581791452
273,hovd,48.01,91.64,-1.39,92,0,1.34,MN,1581791661
274,port hedland,-20.32,118.57,80.6,78,0,8.05,AU,1581791661
275,karratha,-20.74,116.85,82.78,80,1,14.36,AU,1581791661
276,taksimo,56.34,114.88,-0.63,93,16,0.49,RU,1581791661
277,lorengau,-2.02,147.27,83.03,81,64,14.14,PG,1581791661
278,erenhot,43.65,111.98,6.01,77,16,8.32,CN,1581791661
279,karaton,-6.34,106.1,78.8,83,40,2.24,ID,1581791662
280,dunedin,-45.87,170.5,59.0,92,100,3.0,NZ,1581791662
281,limenaria,40.63,24.58,51.01,66,95,4.7,GR,1581791662
282,angoche,-16.23,39.91,77.63,85,2,2.66,MZ,1581791662
283,maldonado,-34.67,-54.92,80.6,47,20,13.87,UY,1581791662
284,carnarvon,-24.87,113.63,75.2,83,90,18.34,AU,1581791577
285,laguna,38.42,-121.42,61.0,76,1,1.43,US,1581791663
286,arandis,-22.42,14.97,66.0,86,6,1.99,NA,1581791663
287,talara,-4.58,-81.27,62.6,100,57,11.41,PE,1581791663
288,ganserndorf,48.34,16.72,46.99,75,91,8.05,AT,1581791663
289,abu samrah,35.3,37.18,38.82,78,77,15.1,SY,1581791663
290,vostok,46.49,135.88,-9.06,94,58,2.73,RU,1581791664
291,cozumel,20.51,-86.95,86.0,58,40,8.05,MX,1581791530
292,sitka,57.05,-135.33,35.6,100,90,4.7,US,1581791664
293,rosetta,31.4,30.42,60.8,77,0,5.82,EG,1581791664
294,kodiak,57.79,-152.41,28.4,92,90,4.92,US,1581791374
295,shemgang,27.22,90.66,50.07,78,9,4.92,BT,1581791664
296,jalu,29.03,21.55,62.26,55,5,15.05,LY,1581791369
297,cockburn town,21.46,-71.14,82.4,58,20,11.41,TC,1581791665
298,kidal,18.44,1.41,78.87,7,67,10.36,ML,1581791665
299,kaili,-3.46,120.21,63.23,94,100,1.52,ID,1581791665
300,revelstoke,50.98,-118.2,33.8,94,90,5.82,CA,1581791665
301,sivaki,52.63,126.75,-7.6,87,7,6.87,RU,1581791665
302,atasu,48.68,71.64,22.19,95,100,3.53,KZ,1581791666
303,nantucket,41.28,-70.1,28.0,63,40,11.41,US,1581791418
304,marzuq,14.4,46.47,61.32,48,0,2.1,YE,1581791666
305,bestobe,52.5,73.1,14.9,89,100,6.58,KZ,1581791666
306,oron,4.83,8.23,82.85,65,45,10.09,NG,1581791666
307,bodden town,19.28,-81.25,86.0,62,20,12.75,KY,1581791667
308,katsuura,35.13,140.3,48.2,81,75,6.93,JP,1581791667
309,vao,-22.67,167.48,79.63,77,58,17.02,NC,1581791667
310,stonewall,50.13,-97.33,10.0,65,90,20.8,CA,1581791667
311,vitim,59.45,112.56,6.67,93,34,6.55,RU,1581791667
312,katherine,-14.47,132.27,78.8,69,40,8.05,AU,1581791668
313,hamilton,39.18,-84.53,39.99,44,40,10.29,US,1581791621
314,fengzhen,40.44,113.15,6.15,54,15,9.95,CN,1581791668
315,puerto escondido,15.85,-97.07,80.6,74,40,5.82,MX,1581791448
316,oranjestad,12.52,-70.03,86.0,58,20,26.4,AW,1581791577
317,ketchikan,55.34,-131.65,41.0,93,90,5.82,US,1581791445
318,kloulklubed,7.04,134.26,78.8,83,75,8.05,PW,1581791442
319,noyabrsk,63.2,75.45,8.92,95,99,8.88,RU,1581791670
320,adrian,41.9,-84.04,27.0,53,90,9.17,US,1581791667
321,qarayeri,40.79,46.31,35.6,51,75,6.93,AZ,1581791671
322,mendi,-6.18,143.65,53.47,96,64,2.35,PG,1581791671
323,birobidzhan,48.8,132.95,-5.12,86,0,2.08,RU,1581791671
324,te anau,-45.42,167.72,52.88,97,100,4.72,NZ,1581791671
325,ambunti,-4.24,142.84,73.65,98,100,2.04,PG,1581791671
326,poum,-20.23,164.02,80.8,78,99,24.99,NC,1581791671
327,sayat,38.78,63.88,33.8,86,33,4.7,TM,1581791672
328,austin,30.27,-97.74,62.6,71,90,9.17,US,1581791532
329,linxia,35.6,103.21,15.71,40,96,1.19,CN,1581791672
330,gamba,-2.65,10.0,80.31,86,95,5.88,GA,1581791446
331,aykhal,66.0,111.5,5.0,84,100,4.47,RU,1581791586
332,honiara,-9.43,159.95,78.8,88,75,4.7,SB,1581791659
333,iquitos,-3.75,-73.25,77.0,88,75,3.36,PE,1581791673
334,taoudenni,22.68,-3.98,83.1,11,80,10.6,ML,1581791673
335,kysyl-syr,63.9,122.76,-4.13,98,98,4.16,RU,1581791673
336,tiksi,71.69,128.87,-0.9,82,100,13.76,RU,1581791673
337,san patricio,19.22,-104.7,84.2,62,75,11.41,MX,1581791674
338,andijon,40.78,72.34,41.0,48,40,23.04,UZ,1581791674
339,mangan,27.52,88.53,41.52,85,91,1.14,IN,1581791674
340,bouar,5.93,15.6,79.02,21,7,6.49,CF,1581791674
341,sur,22.57,59.53,69.33,51,0,12.21,OM,1581791674
342,solnechnyy,50.72,136.63,-5.08,79,0,3.74,RU,1581791675
343,larsnes,62.2,5.58,46.0,45,100,18.34,NO,1581791675
344,paratinga,-12.69,-43.18,82.4,65,75,12.75,BR,1581791675
345,atikokan,48.76,-91.62,24.04,82,100,12.93,CA,1581791675
346,sangerhausen,51.47,11.3,46.99,70,33,10.29,DE,1581791675
347,sandy bay,-42.91,147.35,55.4,62,90,8.05,AU,1581791675
348,newtownards,54.59,-5.69,46.4,81,100,19.46,GB,1581791543
349,xihe,31.69,113.47,28.47,81,93,4.41,CN,1581791676
350,leo,11.1,-2.1,87.33,4,0,6.51,BF,1581791676
351,two rivers,44.15,-87.57,30.2,63,90,19.46,US,1581791677
352,hirara,24.8,125.28,74.7,83,42,17.83,JP,1581791677
353,ekibastuz,51.67,75.37,11.07,83,77,6.76,KZ,1581791636
354,abha,18.22,42.51,62.6,51,0,13.87,SA,1581791677
355,gombong,-7.61,109.51,75.49,91,91,1.66,ID,1581791677
356,zlatoust,55.17,59.65,12.34,96,86,2.33,RU,1581791677
357,ilulissat,69.22,-51.1,8.6,60,75,2.24,GL,1581791678
358,ixtapa,20.7,-105.2,77.0,65,90,5.82,MX,1581791678
359,egvekinot,66.32,-179.17,-13.18,89,100,17.0,RU,1581791678
360,hambantota,6.12,81.12,79.77,78,17,16.06,LK,1581791678
361,yanji,42.91,129.51,17.98,94,100,6.13,CN,1581791678
362,warri,5.52,5.75,87.55,48,84,10.42,NG,1581791678
363,bilma,18.69,12.92,72.75,11,100,6.38,NE,1581791679
364,swellendam,-34.02,20.44,71.6,83,19,5.82,ZA,1581791679
365,laje,-10.18,-40.97,82.69,56,100,9.73,BR,1581791679
366,rio verde de mato grosso,-18.92,-54.84,87.44,63,39,6.51,BR,1581791679
367,topeka,39.05,-95.68,44.01,69,20,4.7,US,1581791445
368,hit,33.64,42.83,52.45,37,96,2.64,IQ,1581791680
369,nishihara,26.18,127.76,73.4,94,75,17.22,JP,1581791401
370,vadso,70.07,29.75,8.6,92,40,6.93,NO,1581791680
371,littleton,39.61,-105.02,41.0,37,1,10.29,US,1581791510
372,wattegama,6.8,81.48,70.92,93,4,3.06,LK,1581791681
373,lompoc,34.64,-120.46,62.01,87,40,8.3,US,1581791681
374,smidovich,48.6,133.82,-7.17,98,20,8.34,RU,1581791681
375,geraldton,-28.77,114.6,71.6,73,90,11.41,AU,1581791681
376,springfield,37.22,-93.3,53.6,36,40,19.46,US,1581791431
377,herat,34.5,62.0,37.4,55,75,3.36,AF,1581791681
378,berlevag,70.86,29.09,25.32,74,0,18.54,NO,1581791682
379,batagay-alyta,67.8,130.41,-7.47,78,60,6.89,RU,1581791682
380,fortuna,40.6,-124.16,51.01,87,20,3.36,US,1581791682
381,barcelos,41.54,-8.62,59.0,77,75,12.75,PT,1581791651
382,cherskiy,68.75,161.3,-33.74,100,100,2.37,RU,1581791683
383,budhlada,29.93,75.57,55.17,27,0,3.18,IN,1581791683
384,grand gaube,-20.01,57.66,80.6,78,40,14.99,MU,1581791683
385,diffa,13.32,12.61,72.01,7,0,7.7,NE,1581791683
386,klaksvik,62.23,-6.59,44.6,81,100,20.8,FO,1581791683
387,saint anthony,45.02,-93.22,36.0,64,40,12.75,US,1581791683
388,huangmei,30.19,116.03,36.1,96,100,7.58,CN,1581791684
389,puyang,29.46,119.89,33.91,96,100,2.84,CN,1581791684
390,filadelfia,39.95,-75.16,33.01,33,75,4.7,US,1581791684
391,broken hill,-31.95,141.43,68.0,64,20,16.11,AU,1581791684
392,muzhi,65.37,64.67,9.05,93,100,3.33,RU,1581791684
393,makakilo city,21.35,-158.09,75.2,83,90,5.82,US,1581791685
394,gizo,-8.1,156.84,77.76,86,91,10.56,SB,1581791685
395,dunmore east,52.15,-6.99,48.99,100,75,20.8,IE,1581791685
396,norman wells,65.28,-126.83,-36.4,73,75,2.24,CA,1581791685
397,waterloo,43.47,-80.52,28.99,67,20,23.04,CA,1581791556
398,libin,49.98,5.28,51.01,76,65,20.8,BE,1581791685
399,puerto narino,-3.77,-70.38,78.8,100,75,5.82,CO,1581791686
400,coahuayana,18.73,-103.68,82.4,51,75,5.08,MX,1581791686
401,sabang,5.89,95.32,81.16,82,97,12.41,ID,1581791686
402,shar,49.59,81.05,13.03,68,61,3.62,KZ,1581791686
403,nyurba,63.28,118.33,1.38,97,95,5.46,RU,1581791687
404,belyy yar,53.6,91.39,3.2,91,30,0.85,RU,1581791687
405,glenwood springs,39.55,-107.32,37.4,44,75,4.72,US,1581791687
406,acajutla,13.59,-89.83,84.13,62,0,8.95,SV,1581791687
407,diamantino,-14.41,-56.45,89.19,59,82,3.06,BR,1581791687
408,biak,-0.91,122.88,81.32,79,40,4.38,ID,1581791687
409,oyem,1.6,11.58,78.73,58,54,2.82,GA,1581791688
410,chernyshevsk,52.52,117.02,-7.49,99,3,1.34,RU,1581791688
411,les escoumins,48.11,-69.02,12.27,84,37,13.91,CA,1581791688
412,sao filipe,14.9,-24.5,78.55,44,78,19.3,CV,1581791688
413,bad windsheim,49.5,10.42,46.4,75,1,8.41,DE,1581791688
414,ambrolauri,42.52,43.16,46.4,33,100,25.28,GE,1581791689
415,caibarien,22.52,-79.47,84.2,54,75,13.87,CU,1581791689
416,rawson,-43.3,-65.1,73.78,42,61,20.69,AR,1581791689
417,shetpe,44.17,52.12,32.9,73,77,7.14,KZ,1581791689
418,sabaudia,41.3,13.03,54.0,81,5,3.36,IT,1581791689
419,gulariya,28.23,81.33,58.86,76,0,2.39,NP,1581791689
420,ambon,-3.7,128.18,82.31,76,86,7.76,ID,1581791690
421,saint-georges,12.06,-61.75,82.4,69,75,18.34,GD,1581791690
422,college,64.86,-147.8,-25.6,67,1,3.36,US,1581791405
423,lerwick,60.15,-1.15,46.4,93,75,25.28,GB,1581791690
424,deyang,31.13,104.38,43.0,49,95,2.24,CN,1581791691
425,santa cruz,-17.8,-63.17,91.4,62,75,18.34,BO,1581791691
426,richards bay,-28.78,32.04,81.1,81,0,17.45,ZA,1581791691
427,monrovia,6.3,-10.8,86.0,70,40,10.29,LR,1581791541
428,oxelosund,58.67,17.1,42.8,86,100,5.82,SE,1581791691
429,tahta,26.77,31.5,71.6,30,0,6.93,EG,1581791692
430,hami,42.8,93.45,20.82,27,0,1.01,CN,1581791417
431,innisfail,-17.53,146.03,81.25,57,30,5.7,AU,1581791692
432,lagoa,39.05,-27.98,63.48,86,100,35.32,PT,1581791692
433,talnakh,69.49,88.4,1.4,84,40,8.95,RU,1581791692
434,potsdam,52.4,13.07,46.99,75,67,10.29,DE,1581791692
435,ostrovnoy,68.05,39.51,12.25,88,0,19.13,RU,1581791693
436,takoradi,4.88,-1.76,82.85,68,68,8.3,GH,1581791693
437,mount gambier,-37.83,140.77,57.2,82,90,9.17,AU,1581791693
438,altamira,-3.2,-52.21,90.61,53,77,4.21,BR,1581791678
439,tessalit,20.2,1.01,79.12,7,100,9.22,ML,1581791693
440,krasnyy chikoy,50.36,108.75,-3.69,99,15,1.14,RU,1581791693
441,toronto,43.7,-79.42,28.99,63,75,21.92,CA,1581791406
442,concepcion del uruguay,-32.48,-58.24,91.0,53,0,5.01,AR,1581791674
443,berdigestyakh,62.1,126.7,-14.55,99,64,3.69,RU,1581791694
444,ahipara,-35.17,173.17,69.01,100,100,1.01,NZ,1581791694
445,luderitz,-26.65,15.16,64.4,88,11,6.93,NA,1581791694
446,liverpool,53.41,-2.98,55.99,100,75,19.46,GB,1581791647
447,dubbo,-32.25,148.62,71.6,73,64,19.46,AU,1581791695
448,ulladulla,-35.35,150.47,66.2,100,90,12.24,AU,1581791695
449,west bay,19.37,-81.42,86.0,62,20,12.75,KY,1581791695
450,panorama,40.59,23.03,53.6,54,20,5.82,GR,1581791695
451,kavieng,-2.57,150.8,83.1,79,98,11.54,PG,1581791696
452,bapatla,15.9,80.47,73.06,79,0,6.98,IN,1581791696
453,cap malheureux,-19.98,57.61,80.6,78,40,14.99,MU,1581791696
454,jasper,37.2,-94.35,50.0,64,90,12.75,US,1581791658
455,kursk,51.73,36.19,32.0,99,90,4.47,RU,1581791697
456,gayny,60.31,54.32,10.62,97,95,4.32,RU,1581791697
457,waingapu,-9.66,120.26,84.87,64,74,1.34,ID,1581791697
458,robat karim,35.48,51.08,41.0,29,68,9.06,IR,1581791697
459,san cristobal,7.77,-72.22,93.2,34,20,8.05,VE,1581791697
460,tilichiki,60.47,166.1,-4.49,90,99,8.75,RU,1581791695
461,pangai,-19.8,-174.35,78.8,74,20,17.22,TO,1581791698
462,fort payne,34.44,-85.72,54.0,39,1,5.82,US,1581791698
463,manaus,-3.1,-60.02,91.4,66,40,4.7,BR,1581791540
464,vanimo,-2.67,141.3,81.45,81,69,11.81,PG,1581791699
465,yokadouma,3.52,15.05,81.75,21,33,1.52,CM,1581791699
466,yarmouth,41.71,-70.23,28.0,42,1,11.41,US,1581791699
467,pionerskiy,54.95,20.23,35.6,84,40,11.18,RU,1581791700
468,kelo,9.31,15.81,85.6,12,0,4.38,TD,1581791700
469,pisco,-13.7,-76.22,75.0,30,75,12.75,PE,1581791700
470,zheleznodorozhnyy,55.75,38.0,32.0,85,59,2.24,RU,1581791572
471,astoria,46.19,-123.83,46.99,87,90,18.34,US,1581791701
472,gejiu,23.31,103.16,47.41,87,45,5.06,CN,1581791701
473,mokrous,51.23,47.52,21.72,93,92,5.79,RU,1581791701
474,viloco,-16.95,-67.55,57.0,55,14,6.82,BO,1581791701
475,saint-pierre,-21.34,55.48,78.8,78,51,5.82,RE,1581791702
476,kamaishi,39.27,141.88,37.47,82,71,4.61,JP,1581791702
477,tezu,27.92,96.17,59.11,77,28,2.73,IN,1581791702
478,ulcinj,41.93,19.22,50.0,39,0,11.41,ME,1581791702
479,kapuskasing,49.42,-82.43,21.2,85,90,9.17,CA,1581791702
480,srednebelaya,50.66,128.01,-7.6,76,0,2.24,RU,1581791703
481,hede,33.77,120.25,33.67,61,83,23.49,CN,1581791703
482,sioux lookout,50.1,-91.92,21.2,73,90,16.11,CA,1581791703
483,matveyev kurgan,47.56,38.87,30.97,91,88,7.09,RU,1581791523
484,karasjok,69.47,25.51,8.6,78,99,16.11,NO,1581791703
485,shellbrook,53.22,-106.4,-4.0,58,5,8.05,CA,1581791704
486,bowen,-20.02,148.23,79.0,94,1,3.36,AU,1581791704
487,batemans bay,-35.72,150.18,66.99,94,89,1.21,AU,1581791606
488,paysandu,-32.32,-58.08,90.0,53,0,5.01,UY,1581791546
489,gdov,58.74,27.81,34.0,74,100,12.39,RU,1581791704
490,kainantu,-6.29,145.87,59.54,95,100,4.43,PG,1581791705
491,camacha,33.08,-16.33,66.2,77,20,9.17,PT,1581791705
492,lata,40.16,-8.33,62.01,77,20,4.7,PT,1581791705
493,alekseyevka,50.63,38.69,26.92,92,97,2.86,RU,1581791705
494,acapulco,16.86,-99.89,87.8,52,20,5.82,MX,1581791463
495,okhotsk,59.38,143.3,0.5,71,0,12.03,RU,1581791705
496,dickinson,29.46,-95.05,69.01,55,75,3.36,US,1581791581
497,lima,-12.04,-77.03,82.4,61,23,8.05,PE,1581791427
498,flin flon,54.77,-101.86,-9.4,52,5,11.41,CA,1581791706
499,petropavlovsk-kamchatskiy,53.05,158.65,28.4,54,97,11.18,RU,1581791441
500,victoria point,-27.58,153.3,78.01,94,20,3.11,AU,1581791706
501,fallon,39.47,-118.78,50.0,41,40,3.36,US,1581791418
502,kudeyevskiy,54.88,56.76,17.6,92,90,8.95,RU,1581791707
503,oktyabrskiy,54.48,53.47,4.3,98,78,1.57,RU,1581791550
504,beloha,-25.17,45.05,75.27,87,1,8.86,MG,1581791707
505,adjumani,3.38,31.79,88.25,28,100,6.11,UG,1581791707
506,skegness,53.14,0.34,55.99,87,90,35.57,GB,1581791514
507,chapais,49.78,-74.85,15.8,72,90,19.46,CA,1581791708
508,santa luzia,-19.77,-43.85,89.6,45,40,5.82,BR,1581791561
509,deputatskiy,69.3,139.9,-14.19,77,87,5.1,RU,1581791708
510,northam,51.03,-4.22,55.99,100,75,31.09,GB,1581791708
511,carutapera,-1.2,-46.02,82.33,75,76,10.07,BR,1581791709
512,ashland,40.82,-82.27,32.0,58,1,13.87,US,1581791709
513,san policarpo,12.18,125.51,79.02,85,8,11.45,PH,1581791709
514,kenai,60.55,-151.26,9.0,84,40,6.64,US,1581791709
515,mporokoso,-9.37,30.12,63.43,95,84,2.55,ZM,1581791709
516,cheremukhovo,60.35,59.99,14.11,88,99,2.89,RU,1581791710
517,tymovskoye,50.85,142.66,0.16,96,100,4.54,RU,1581791585
518,rybachiy,48.71,44.74,28.4,92,100,4.47,RU,1581791710
519,oriximina,-1.77,-55.87,89.91,56,95,2.15,BR,1581791710
520,sayansk,54.11,102.16,1.62,91,0,1.43,RU,1581791710
521,kaniama,-7.57,24.18,67.37,94,94,3.18,CD,1581791710
522,chegdomyn,51.12,133.02,-19.52,100,43,0.85,RU,1581791711
523,tuatapere,-46.13,167.68,57.0,97,100,5.99,NZ,1581791711
524,turan,16.07,108.22,75.2,94,20,1.12,VN,1581791711
525,ereymentau,51.62,73.1,16.25,72,97,8.43,KZ,1581791711
526,dinar,38.06,30.17,39.2,93,75,3.36,TR,1581791711
527,cobija,-11.03,-68.77,89.6,66,75,6.93,BO,1581791712
528,tura,25.52,90.22,64.38,60,44,3.6,IN,1581791712
529,aleksandrov gay,50.15,48.57,25.12,92,100,5.66,RU,1581791712
530,oksovskiy,62.61,39.9,22.6,94,100,6.89,RU,1581791712
531,nuuk,64.18,-51.72,21.2,85,75,20.8,GL,1581791712
532,catabola,-12.15,17.28,67.21,94,96,5.55,AO,1581791713
533,daman,20.42,72.85,69.21,37,0,0.89,IN,1581791713
534,kholtoson,50.3,103.31,2.79,87,0,2.93,RU,1581791713
535,daboh,26.0,78.88,60.22,43,46,2.15,IN,1581791713
536,dali,25.7,100.18,43.36,91,34,1.59,CN,1581791714
537,portland,45.52,-122.68,44.01,93,90,11.41,US,1581791454
538,matagami,49.75,-77.63,17.6,85,90,14.99,CA,1581791714
539,billings,45.78,-108.5,35.01,56,41,18.34,US,1581791714
540,belgrade,44.8,20.47,42.8,87,1,3.36,RS,1581791714
541,panguna,-6.32,155.48,70.36,88,91,2.89,PG,1581791715
542,mahibadhoo,3.78,72.97,82.69,79,64,11.7,MV,1581791715
543,ca mau,9.18,105.15,71.46,94,0,1.48,VN,1581791715
